HTTP/1.1 200 OK
Content-Type: application/json; charset=utf-8
Access-Control-Allow-Origin: *

[
    [
      1692123345026,
      "$GNGLL,5212.0097,N,02101.4518,E,181541.000,A,A*4F\n"
    ],
    [
      1692123345141,
      "$GPGST,181541.000,6.3,14,6.9,32.5,12,9.3,59*7F\n"
    ],
    [
      1692123345221,
      "$GNVTG,69.94,T,,M,0.13,N,0.24,K,A*15\n"
    ],
    [
      1692123345314,
      "$GNGGA,181538.000,5212.0100,N,02101.4513,E,1,7,1.40,72.6,M,39.0,M,,*7B\n"
    ],
    [
      1692123345429,
      "$GPGSA,A,3,07,30,14,13,05,20,,,,,,,1.69,1.40,0.95*01\n"
    ],
    [
      1692123345580,
      "$BDGSA,A,3,24,,,,,,,,,,,,1.69,1.40,0.95*12\n"
    ],
    [
      1692123345672,
      "$GPGSV,3,1,12,30,70,075,28,14,52,156,31,13,52,293,32,05,48,252,36*73\n"
    ],
    [
      1692123345728,
      "$GPGSV,3,2,12,07,40,072,29,20,32,216,31,49,28,199,,15,20,301,*70\n"
    ],
    [
      1692123345831,
      "$GNZDA,181545.000,15,08,2023,,*4B\n"
    ],
    [
      1692123346010,
      "$GNRMC,181545.000,A,5212.0094,N,02101.4515,E,0.00,233.83,150823,,,A*76\n"
    ],
    [
      1692123346113,
      "$GNVTG,233.83,T,,M,0.00,N,0.00,K,A*2A\n"
    ],
    [
      1692123346246,
      "$GNGGA,181545.000,5212.0094,N,02101.4515,E,1,7,1.40,72.6,M,39.0,M,,*7B\n"
    ],
    [
      1692123346432,
      "$GPGSA,A,3,07,30,14,13,05,20,,,,,,,1.69,1.40,0.95*01\n"
    ],
    [
      1692123346543,
      "$BDGSA,A,3,24,,,,,,,,,,,,1.69,1.40,0.95*12\n"
    ],
    [
      1692123346611,
      "$GPGSV,3,1,12,30,70,075,27,14,52,156,30,13,52,293,27,05,48,252,32*7D\n"
    ],
    [
      1692123346690,
      "$GPGSV,3,2,12,07,40,072,31,20,32,216,29,49,28,199,32,15,20,301,*71\n"
    ],
    [
      1692123346768,
      "$GPGSV,3,3,12,08,17,053,,18,10,324,,27,07,019,,09,01,122,*7C\n"
    ],
    [
      1692123346848,
      "$BDGSV,2,1,05,24,71,084,29,14,36,163,33,05,20,136,,09,11,084,*6B\n"
    ],
    [
      1692123347044,
      "$BDGSV,2,2,05,29,05,013,*51\n"
    ],
    [
      1692123347144,
      "$GNGLL,5212.0094,N,02101.4515,E,181545.000,A,A*45\n"
    ],
    [
      1692123347231,
      "$GPGRS,181545.000,1,-4.64,3.18,4.04,0.80,2.18,-4.37,0.72,,,,,*66\n"
    ],
    [
      1692123347334,
      "$GPGST,181545.000,5.9,14,6.8,32.1,12,9.2,56*79\n"
    ],
    [
      1692123347450,
      "$GPGSV,3,3,12,08,17,053,,18,10,324,,27,07,019,19,09,01,122,*74\n"
    ],
    [
      1692123347546,
      "$BDGSV,2,1,05,24,71,084,22,14,36,163,,05,20,136,,09,11,084,*60\n"
    ],
    [
      1692123347683,
      "$GNZDA,181539.000,15,08,2023,,*40\n"
    ],
    [
      1692123347774,
      "$GPGSV,3,2,12,07,40,072,29,20,32,216,31,49,28,199,,15,20,301,*70\n"
    ],
    [
      1692123347869,
      "$GNZDA,181545.000,15,08,2023,,*4B\n"
    ],
    [
      1692123348114,
      "$GNRMC,181545.000,A,5212.0094,N,02101.4515,E,0.00,233.83,150823,,,A*76\n"
    ],
    [
      1692123348217,
      "$GNVTG,233.83,T,,M,0.00,N,0.00,K,A*2A\n"
    ],
    [
      1692123348290,
      "$GNGGA,181545.000,5212.0094,N,02101.4515,E,1,7,1.40,72.6,M,39.0,M,,*7B\n"
    ],
    [
      1692123348384,
      "$GPGSA,A,3,07,30,14,13,05,20,,,,,,,1.69,1.40,0.95*01\n"
    ],
    [
      1692123348449,
      "$BDGSA,A,3,24,,,,,,,,,,,,1.69,1.40,0.95*12\n"
    ],
    [
      1692123348581,
      "$GPGSV,3,1,12,30,70,075,27,14,52,156,30,13,52,293,27,05,48,252,32*7D\n"
    ],
    [
      1692123348779,
      "$GPGSV,3,2,12,07,40,072,31,20,32,216,29,49,28,199,32,15,20,301,*71\n"
    ],
    [
      1692123349069,
      "$GPGSV,3,3,12,08,17,053,,18,10,324,,27,07,019,,09,01,122,*7C\n"
    ],
    [
      1692123349190,
      "$BDGSV,2,1,05,24,71,084,29,14,36,163,33,05,20,136,,09,11,084,*6B\n"
    ],
    [
      1692123349272,
      "$BDGSV,2,2,05,29,05,013,*51\n"
    ],
    [
      1692123349364,
      "$GNGLL,5212.0094,N,02101.4515,E,181545.000,A,A*45\n"
    ],
    [
      1692123349461,
      "$GPGRS,181545.000,1,-4.64,3.18,4.04,0.80,2.18,-4.37,0.72,,,,,*66\n"
    ],
    [
      1692123349548,
      "$GPGST,181545.000,5.9,14,6.8,32.1,12,9.2,56*79\n"
    ],
    [
      1692123349683,
      "$GNZDA,181552.000,15,08,2023,,*4D\n"
    ],
    [
      1692123349780,
      "$GNRMC,181552.000,A,5212.0106,N,02101.4466,E,1.42,268.47,150823,,,A*7E\n"
    ],
    [
      1692123349842,
      "$GNVTG,268.47,T,,M,1.42,N,2.63,K,A*2C\n"
    ],
    [
      1692123350061,
      "$GNGGA,181552.000,5212.0106,N,02101.4466,E,1,7,1.40,72.7,M,39.0,M,,*73\n"
    ],
    [
      1692123350222,
      "$GPGSA,A,3,07,30,14,13,05,20,,,,,,,1.69,1.40,0.95*01\n"
    ],
    [
      1692123350423,
      "$BDGSA,A,3,24,,,,,,,,,,,,1.69,1.40,0.95*12\n"
    ],
    [
      1692123350603,
      "$GPGSV,3,1,12,30,70,075,30,14,52,156,30,13,52,293,17,05,48,252,32*78\n"
    ],
    [
      1692123350713,
      "$GPGSV,3,2,12,07,40,072,28,20,32,216,28,40,22,139,,15,20,301,*70\n"
    ],
    [
      1692123350772,
      "$GPGSV,3,3,12,08,17,053,,18,10,324,,27,07,019,15,09,01,122,*78\n"
    ],
    [
      1692123350878,
      "$BDGSV,2,1,05,24,71,084,37,14,36,163,38,05,20,136,,09,11,084,*6F\n"
    ],
    [
      1692123350977,
      "$BDGSV,2,2,05,29,05,013,*51\n"
    ],
    [
      1692123351056,
      "$GNGLL,5212.0106,N,02101.4466,E,181552.000,A,A*4C\n"
    ],
    [
      1692123351183,
      "$GPGRS,181552.000,1,-5.22,1.01,0.22,-0.99,0.79,-3.25,0.10,,,,,*49\n"
    ],
    [
      1692123351247,
      "$GPGST,181552.000,5.3,12,3.8,34.6,10,7.7,56*7E\n"
    ],
    [
      1692123351373,
      "$GPGSV,3,3,12,08,17,053,,18,10,324,,27,07,019,19,09,01,122,*74\n"
    ],
    [
      1692123351464,
      "$BDGSV,2,1,05,24,71,084,22,14,36,163,,05,20,136,,09,11,084,*60\n"
    ],
    [
      1692123351634,
      "$GNZDA,181539.000,15,08,2023,,*40\n"
    ],
    [
      1692123351987,
      "$GPGSV,3,2,12,07,40,072,29,20,32,216,31,49,28,199,,15,20,301,*70\n"
    ],
    [
      1692123352083,
      "$GNZDA,181545.000,15,08,2023,,*4B\n"
    ],
    [
      1692123352256,
      "$GNRMC,181545.000,A,5212.0094,N,02101.4515,E,0.00,233.83,150823,,,A*76\n"
    ],
    [
      1692123352301,
      "$GNVTG,233.83,T,,M,0.00,N,0.00,K,A*2A\n"
    ],
    [
      1692123352365,
      "$GNGGA,181545.000,5212.0094,N,02101.4515,E,1,7,1.40,72.6,M,39.0,M,,*7B\n"
    ],
    [
      1692123352498,
      "$GPGSA,A,3,07,30,14,13,05,20,,,,,,,1.69,1.40,0.95*01\n"
    ],
    [
      1692123352602,
      "$BDGSA,A,3,24,,,,,,,,,,,,1.69,1.40,0.95*12\n"
    ],
    [
      1692123352751,
      "$GPGSV,3,1,12,30,70,075,27,14,52,156,30,13,52,293,27,05,48,252,32*7D\n"
    ],
    [
      1692123352828,
      "$GPGSV,3,2,12,07,40,072,31,20,32,216,29,49,28,199,32,15,20,301,*71\n"
    ],
    [
      1692123352885,
      "$GPGSV,3,3,12,08,17,053,,18,10,324,,27,07,019,,09,01,122,*7C\n"
    ],
    [
      1692123353007,
      "$GNZDA,181553.000,15,08,2023,,*4C\n"
    ],
    [
      1692123353156,
      "$GNRMC,181553.000,A,5212.0108,N,02101.4425,E,8.85,265.67,150823,,,A*7B\n"
    ],
    [
      1692123353247,
      "$GNVTG,265.67,T,,M,8.85,N,16.40,K,A*15\n"
    ],
    [
      1692123353353,
      "$GNGGA,181553.000,5212.0108,N,02101.4425,E,1,7,1.40,72.7,M,39.0,M,,*7B\n"
    ],
    [
      1692123353592,
      "$GPGSA,A,3,07,30,14,13,05,20,,,,,,,1.69,1.40,0.95*01\n"
    ],
    [
      1692123353738,
      "$BDGSA,A,3,24,,,,,,,,,,,,1.69,1.40,0.95*12\n"
    ],
    [
      1692123353841,
      "$GPGSV,3,1,12,30,70,075,31,14,52,156,30,13,52,293,16,05,48,252,32*78\n"
    ],
    [
      1692123353957,
      "$GPGSV,3,2,12,07,40,072,27,20,32,216,28,40,22,139,,15,20,301,*7F\n"
    ],
    [
      1692123354364,
      "$GPGSV,3,3,12,08,17,053,,18,10,324,,27,07,019,15,09,01,122,*78\n"
    ],
    [
      1692123354533,
      "$BDGSV,2,1,05,24,71,084,37,14,36,163,37,05,20,136,,09,11,084,*60\n"
    ],
    [
      1692123354707,
      "$BDGSV,2,2,05,29,05,013,*51\n"
    ],
    [
      1692123355120,
      "$GNGLL,5212.0108,N,02101.4425,E,181553.000,A,A*44\n"
    ],
    [
      1692123355271,
      "$GPGRS,181553.000,1,-4.71,0.11,-0.08,3.92,1.64,-2.64,-0.32,,,,,*6B\n"
    ],
    [
      1692123355507,
      "$GPGST,181553.00\n"
    ],
    [
      1692123355586,
      "$$GPGSV,3,3,12,08,17,053,,18,10,324,,27,07,019,15,09,01,122,*78\n"
    ],
    [
      1692123355682,
      "$BDGSV,2,1,05,24,71,084,37,14,36,163,37,05,20,136,,09,11,084,*60\n"
    ],
    [
      1692123355842,
      "$BDGSV,2,2,05,29,05,013,*51\n"
    ],
    [
      1692123356041,
      "$GNGLL,5212.0108,N,02101.4425,E,181553.000,A,A*44\n"
    ],
    [
      1692123356234,
      "$GPGRS,181553.000,1,-4.71,0.11,-0.08,3.92,1.64,-2.64,-0.32,,,,,*6B\n"
    ],
    [
      1692123356273,
      "$GPGST,181553.000,5.2,12,4.1,33.3,10,7.5,56*70\n"
    ],
    [
      1692123356369,
      "$BDGSV,2,1,05,24,71,084,29,14,36,163,33,05,20,136,,09,11,084,*6B\n"
    ],
    [
      1692123356472,
      "$BDGSV,2,2,05,29,05,013,*51\n"
    ],
    [
      1692123356584,
      "$GNZDA,181556.000,15,08,2023,,*49\n"
    ],
    [
      1692123356679,
      "$GNRMC,181556.000,A,5212.0106,N,02101.4270,E,11.79,260.30,150823,,,A*4A\n"
    ],
    [
      1692123356833,
      "$GNVTG,260.30,T,,M,11.79,N,21.84,K,A*25\n"
    ],
    [
      1692123356989,
      "$GNGGA,181556.000,5212.0106,N,02101.4270,E,1,7,1.40,72.8,M,39.0,M,,*79\n"
    ],
    [
      1692123357114,
      "$GPGSA,A,3,07,30,14,13,05,20,,,,,,,1.69,1.40,0.95*01\n"
    ],
    [
      1692123357215,
      "$BDGSA,A,3,24,,,,,,,,,,,,1.69,1.40,0.95*12\n"
    ],
    [
      1692123357442,
      "$GPGSV,3,1,12,30,70,075,33,14,52,156,28,13,52,293,26,05,48,252,30*72\n"
    ],
    [
      1692123357532,
      "$GPGSV,3,2,12,07,40,072,25,20,32,216,25,40,22,139,,15,20,301,*70\n"
    ],
    [
      1692123357627,
      "$GPGSV,3,3,12,08,17,053,,18,10,324,,27,07,019,,09,01,122,*7C\n"
    ],
    [
      1692123357804,
      "$BDGSV,2,1,05,24,71,084,37,14,36,163,29,05,20,136,,09,11,084,*6F\n"
    ],
    [
      1692123357917,
      "$BDGSV,2,2,05,29,05,013,*51\n"
    ],
    [
      1692123358048,
      "$GNGLL,5212.0106,N,02101.4270,E,181556.000,A,A*49\n"
    ],
    [
      1692123358112,
      "$GPGRS,181556.000,1,-6.78,-0.01,0.40,-3.33,0.40,-1.08,-0.29,,,,,*4A\n"
    ],
    [
      1692123358191,
      "$GPGST,181556.000,5.0,12,3.8,34.8,10,7.6,57*77\n"
    ],
    [
      1692123358274,
      "$GNGLL,5212.0094,N,02101.4515,E,181545.000,A,A*45\n"
    ],
    [
      1692123358517,
      "$GPGRS,181545.000,1,-4.64,3.18,4.04,0.80,2.18,-4.37,0.72,,,,,*66\n"
    ],
    [
      1692123358786,
      "$GPGST,181545.0012.0071,N,02101.4191,E,1,8,1.14,72.8,M,39.0,M,,*74\n"
    ],
    [
      1692123358925,
      "$GPGSA,A,3,07,15,30,14,13,05,20,,,,,,1.46,1.14,0.91*0D\n"
    ],
    [
      1692123359075,
      "$BDGSA,A,3,24,,,,,,,,,,,,1.46,1.14,0.91*1A\n"
    ],
    [
      1692123359271,
      "$GPGSV,3,1,12,30,70,075,33,14,52,156,29,13,52,293,26,05,48,252,18*79\n"
    ],
    [
      1692123359461,
      "$GPGSV,3,2,12,07,40,072,26,20,32,216,18,40,22,139,,15,20,301,24*7B\n"
    ],
    [
      1692123359653,
      "$GPGSV,3,3,12,08,17,053,,18,10,324,,27,07,019,,09,01,122,*7C\n"
    ],
    [
      1692123359836,
      "$BDGSV,2,1,05,24,71,084,38,14,36,163,31,05,20,136,,09,11,084,*69\n"
    ],
    [
      1692123359987,
      "$BDGSV,2,2,05,29,05,013,*51\n"
    ],
    [
      1692123360052,
      "$GNGLL,5212.0071,N,02101.4191,E,181558.000,A,A*4A\n"
    ],
    [
      1692123360127,
      "$GPGRS,181558.000,1,-6.75,45.6,-0.16,1.67,-0.52,1.20,-3.24,-0.01,,,,*57\n"
    ],
    [
      1692123360200,
      "$GPGST,181558.000,4.8,14,0.001,38.6,11,8.5,66*71\n"
    ],
    [
      1692123360274,
      "$GPGST,181552.000,5.3,12,3.8,34.6,10,7.7,56*7E\n"
    ],
    [
      1692123360389,
      "$GPGSV,3,3,12,08,17,053,,18,10,324,,27,07,019,19,09,01,122,*74\n"
    ],
    [
      1692123360714,
      "$BDGSV,2,1,05,24,71,084,22,14,36,163,,05,20,136,,09,11,084,*60\n"
    ],
    [
      1692123360816,
      "$GNZDA,181539.000,15,08,2023,,*40\n"
    ],
    [
      1692123361068,
      "$BDGSV,2,1,05,24,71,084,38,14,36,163,31,05,20,136,,09,11,084,*69\n"
    ],
    [
      1692123361154,
      "$BDGSV,2,2,05,29,05,013,*51\n"
    ],
    [
      1692123361447,
      "$GNGLL,5212.0071,N,02101.4191,E,181558.000,A,A*4A\n"
    ],
    [
      1692123361608,
      "$GPGRS,181558.000,1,-6.75,45.6,-0.16,1.67,-0.52,1.20,-3.24,-0.01,,,,*57\n"
    ],
    [
      1692123361716,
      "$GPGST,181558.000,4.8,14,0.001,38.6,11,8.5,66*71\n"
    ],
    [
      1692123361854,
      "$GPGST,181552.000,5.3,12,3.8,34.6,10,7.7,56*7E\n"
    ],
    [
      1692123361983,
      "$GPGSV,3,3,12,08,17,053,,18,10,324,,27,07,019,19,09,01,122,*74\n"
    ],
    [
      1692123362098,
      "$BDGSV,2,1,05,24,71,084,22,14,36,163,,05,20,136,,09,11,084,*60\n"
    ],
    [
      1692123362157,
      "$GNZDA,181539.000,15,08,2023,,*40\n"
    ],
    [
      1692123362291,
      "$BDGSV,2,1,05,24,71,084,38,14,36,163,31,05,20,136,,09,11,084,*69\n"
    ],
    [
      1692123362486,
      "$BDGSV,2,2,05,29,05,013,*51\n"
    ],
    [
      1692123362609,
      "$GNGLL,5212.0071,N,02101.4191,E,181558.000,A,A*4A\n"
    ],
    [
      1692123362643,
      "$GPGRS,181558.000,1,-6.75,45.6,-0.16,1.67,-0.52,1.20,-3.24,-0.01,,,,*57\n"
    ],
    [
      1692123362658,
      "$GPGST,181558.000,4.8,14,0.001,38.6,11,8.5,66*71\n"
    ],
    [
      1692123362673,
      "$GPGST,181552.000,5.3,12,3.8,34.6,10,7.7,56*7E\n"
    ],
    [
      1692123362688,
      "$GNZDA,181605.000,15,08,2023,,*4C\n"
    ],
    [
      1692123362704,
      "$GNRMC,181605.000,A,5211.9825,N,02101.4196,E,10.73,174.14,150823,,,A*4D\n"
    ],
    [
      1692123362729,
      "$GNVTG,174.14,T,,M,10.73,N,19.88,K,A*29\n"
    ],
    [
      1692123362744,
      "$GNGGA,181605.000,5211.9825,N,02101.4196,E,1,8,1.29,73.0,M,39.0,M,,*7C\n"
    ],
    [
      1692123362759,
      "$GPGSA,A,3,08,07,30,14,13,05,20,,,,,,1.55,1.29,0.87*0A\n"
    ],
    [
      1692123362775,
      "$BDGSA,A,3,24,,,,,,,,,,,,1.55,1.29,0.87*11\n"
    ],
    [
      1692123362791,
      "$GPGSV,3,1,12,30,70,075,38,14,52,156,30,13,52,293,28,05,48,252,25*7A\n"
    ],
    [
      1692123412030,
      "$BDGSV,2,2,05,29,05,012,*50\n"
    ],
    [
      1692123412109,
      "$GPGRS,181648.000,1,-4.68,-11.7,-12.6,0.42,44.3,5.94,-1.49,0.64,-2.10,,,*47\n"
    ],
    [
      1692123412177,
      "$GPGST,181648.000,7.3,10,6.5,132.3,8.3,8.6,24*63\n"
    ],
    [
      1692123412223,
      "$BDGSV,2,1,05,24,71,083,41,14,35,163,34,05,20,136,,09,10,084,*67\n"
    ],
    [
      1692123412269,
      "$BDGSV,2,2,05,29,05,012,*50\n"
    ],
    [
      1692123412355,
      "$GNGLL,5211.8628,N,02101.4321,E,181647.000,A,A*4F\n"
    ],
    [
      1692123412434,
      "$GPGRS,181647.000,1,-5.87,-13.0,-3.43,0.10,42.0,6.40,-1.17,2.16,-2.43,,,*4E\n"
    ],
    [
      1692123412481,
      "$GPGST,181647.000,7.3,9.7,6.4,131.8,8.0,8.4,23*42\n"
    ],
    [
      1692123412524,
      "$GNZDA,181652.000,15,08,2023,,*4E\n"
    ],
    [
      1692123412663,
      "$GNRMC,181652.000,A,5211.8492,N,02101.4342,E,4.27,167.51,150823,,,A*72\n"
    ],
    [
      1692123412748,
      "$GNVTG,167.51,T,,M,4.27,N,7.90,K,A*28\n"
    ],
    [
      1692123412799,
      "$GNGGA,181652.000,5211.8492,N,02101.4342,E,1,9,0.96,73.8,M,39.0,M,,*78\n"
    ],
    [
      1692123412814,
      "$GPGSA,A,3,20,07,08,30,15,14,05,,,,,,1.29,0.96,0.85*00\n"
    ],
    [
      1692123412829,
      "$BDGSA,A,3,14,24,,,,,,,,,,,1.29,0.96,0.85*18\n"
    ],
    [
      1692123412845,
      "$GPGSV,3,1,12,30,69,075,38,13,53,294,,14,52,156,35,05,48,251,21*7C\n"
    ],
    [
      1692123412861,
      "$GPGSV,3,2,12,07,39,072,25,20,32,215,32,40,22,139,,15,20,301,24*7D\n"
    ],
    [
      1692123412877,
      "$GPGSV,3,3,12,08,17,052,15,18,10,324,,27,07,019,,09,01,122,*79\n"
    ],
    [
      1692123412892,
      "$BDGSV,2,1,06,24,71,083,42,10,37,085,,14,35,163,35,05,20,136,*6A\n"
    ],
    [
      1692123412907,
      "$BDGSV,2,2,06,09,10,084,,29,05,012,*67\n"
    ],
    [
      1692123412922,
      "$GNGLL,5211.8492,N,02101.4342,E,181652.000,A,A*4D\n"
    ],
    [
      1692123412938,
      "$GPGRS,181652.000,1,-9.84,-7.00,26.6,-0.10,40.7,2.86,-1.99,-1.58,-0.48,,,*66\n"
    ],
    [
      1692123413013,
      "$GPGST,181652.000,7.1,12,8.1,135.9,10,10,26*68\n"
    ],
    [
      1692123413112,
      "$GPGSV,3,3,12,08,17,052,20,18,10,324,,27,07,019,,09,01,122,*7F\n"
    ],
    [
      1692123413226,
      "$GNZDA,181648.000,15,08,2023,,*45\n"
    ],
    [
      1692123413552,
      "$GNRMC,181648.000,A,5211.8581,N,02101.4327,E,16.63,173.90,150823,,,A*42\n"
    ],
    [
      1692123413612,
      "$GNVTG,173.90,T,,M,16.63,N,30.82,K,A*24\n"
    ],
    [
      1692124416277,
      "$GPGSV,3,3,11,08,17,045,14,18,09,318,20,27,04,014,*4F\n"
    ],
    [
      1692124416408,
      "$BDGSV,3,1,11,24,66,073,41,25,52,226,33,10,38,083,29,07,34,069,31*6C\n"
    ],
    [
      1692124416524,
      "$BDGSV,3,2,11,14,29,164,28,05,20,136,28,26,17,059,19,09,09,088,23*60\n"
    ],
    [
      1692124416604,
      "$BDGSV,3,3,11,02,06,113,,23,05,233,,29,04,007,*51\n"
    ],
    [
      1692124416685,
      "$GPGST,183308.000,4.8,5.9,3.6,179.0,5.9,3.6,15*4F\n"
    ],
    [
      1692124416769,
      "$BDGSV,3,3,11,02,06,113,,23,05,233,,29,04,007,13*53\n"
    ],
    [
      1692124416907,
      "$GNGLL,5205.1338,N,02101.2338,E,183305.000,A,A*48\n"
    ],
    [
      1692124417038,
      "$GNZDA,183320.000,15,08,2023,,*4C\n"
    ],
    [
      1692124417154,
      "$GNRMC,183320.000,A,5204.9939,N,02101.3241,E,35.56,158.09,150823,,,A*49\n"
    ],
    [
      1692124417345,
      "$GNVTG,158.09,T,,M,35.56,N,65.88,K,A*20\n"
    ],
    [
      1692124417399,
      "$GNGGA,183320.000,5204.9939,N,02101.3241,E,1,13,0.80,92.5,M,39.3,M,,*4B\n"
    ],
    [
      1692124417459,
      "$GNZDA,183330.000,15,08,2023,,*4D\n"
    ],
    [
      1692124417596,
      "$GNZDA,183339.000,15,08,2023,,*44\n"
    ],
    [
      1692124417706,
      "$GNRMC,183339.000,A,5204.8917,N,02101.4008,E,4.40,150.31,150823,,,A*72\n"
    ],
    [
      1692124417795,
      "$GNVTG,150.31,T,,M,4.40,N,8.16,K,A*2A\n"
    ],
    [
      1692124418076,
      "$GNGGA,183339.000,5204.8917,N,02101.4008,E,1,13,0.82,94.2,M,39.3,M,,*45\n"
    ],
    [
      1692124418156,
      "$GPGSA,A,3,30,20,05,07,15,13,14,18,,,,,1.58,0.82,1.35*0A\n"
    ],
    [
      1692124418265,
      "$BDGSA,A,3,07,14,10,24,25,,,,,,,,1.58,0.82,1.35*10\n"
    ],
    [
      1692124418381,
      "$GPGSV,3,1,11,30,62,075,31,13,60,294,33,14,58,148,27,05,44,242,31*74\n"
    ],
    [
      1692124418518,
      "$GPGSV,3,2,11,07,33,074,32,49,28,200,25,15,26,301,31,20,25,212,26*7F\n"
    ],
    [
      1692124418722,
      "$GPGSV,3,3,11,08,17,045,,18,09,318,19,27,04,014,*40\n"
    ],
    [
      1692124418754,
      "$BDGSV,3,1,11,24,66,073,37,25,52,226,29,10,38,082,34,07,34,069,33*69\n"
    ],
    [
      1692124418837,
      "$BDGSV,3,2,11,14,28,164,31,05,20,136,30,26,17,059,30,09,09,088,25*6D\n"
    ],
    [
      1692124419039,
      "$BDGSV,3,3,11,02,06,113,29,23,05,233,20,29,04,007,*58\n"
    ],
    [
      1692124419126,
      "$GNGLL,5204.8917,N,02101.4008,E,183339.000,A,A*4E\n"
    ],
    [
      1692124419258,
      "$GPGRS,183339.000,1,-0.79,-12.5,-0.27,-0.46,0.40,4.91,4.15,-1.47,1.44,1.08,,-1.12,*40\n"
    ],
    [
      1692124419373,
      "$GPGST,183339.000,4.3,4.7,2.9,167.2,4.6,3.0,15*42\n"
    ],
    [
      1692124419513,
      "$GNRMC,183330.000,A,5204.9169,N,02101.3763,E,21.67,154.02,150823,,,A*40\n"
    ],
    [
      1692124419606,
      "$GNVTG,154.02,T,,M,21.67,N,40.15,K,A*23\n"
    ],
    [
      1692124419845,
      "$GNGGA,183330.000,5204.9169,N,02101.3763,E,1,13,0.80,92.7,M,39.3,M,,*40\n"
    ],
    [
      1692124419953,
      "$GPGSA,A,3,30,20,05,07,15,13,14,18,,,,,1.14,0.80,0.80*0F\n"
    ],
    [
      1692124420052,
      "$BDGSA,A,3,07,14,10,24,25,,,,,,,,1.14,0.80,0.80*15\n"
    ],
    [
      1692124420200,
      "$GPGSV,3,1,11,30,62,075,32,13,60,294,30,14,58,148,25,05,44,242,25*73\n"
    ],
    [
      1692124420301,
      "$GPGSV,3,2,11,07,33,074,30,49,28,200,,15,26,301,28,20,25,212,22*76\n"
    ],
    [
      1692124420380,
      "$GPGSV,3,3,11,08,17,045,,18,09,318,18,27,04,014,*41\n"
    ],
    [
      1692124420491,
      "$GNZDA,183337.000,15,08,2023,,*4A\n"
    ],
    [
      1692124420589,
      "$GNRMC,183337.000,A,5204.8939,N,02101.3977,E,9.42,147.90,150823,,,A*74\n"
    ],
    [
      1692124420684,
      "$GNVTG,147.90,T,,M,9.42,N,17.46,K,A*13\n"
    ],
    [
      1692124420779,
      "$GNGGA,183337.000,5204.8939,N,02101.3977,E,1,13,0.82,92.9,M,39.3,M,,*4C\n"
    ],
    [
      1692124420841,
      "$GPGSA,A,3,30,20,05,07,15,13,14,18,,,,,1.58,0.82,1.35*0A\n"
    ],
    [
      1692124420953,
      "$BDGSA,A,3,07,14,10,24,25,,,,,,,,1.58,0.82,1.35*10\n"
    ],
    [
      1692124421011,
      "$GPGSV,3,1,11,30,62,075,31,13,60,294,31,14,58,148,27,05,44,242,31*76\n"
    ],
    [
      1692124421069,
      "$GNZDA,183340.000,15,08,2023,,*4A\n"
    ],
    [
      1692124421171,
      "$GNRMC,183340.000,A,5204.8912,N,02101.4013,E,2.19,150.31,150823,,,A*79\n"
    ],
    [
      1692124421240,
      "$GNVTG,150.31,T,,M,2.19,N,4.06,K,A*2D\n"
    ],
    [
      1692124421530,
      "$GNGGA,183340.000,5204.8912,N,02101.4013,E,1,14,0.78,94.8,M,39.3,M,,*4C\n"
    ],
    [
      1692124421721,
      "$GPGSA,A,3,30,20,05,07,15,13,08,14,18,,,,1.47,0.78,1.25*08\n"
    ],
    [
      1692124421846,
      "$BDGSA,A,3,07,14,10,24,25,,,,,,,,1.47,0.78,1.25*1A\n"
    ],
    [
      1692124422069,
      "$GPGSV,3,1,11,30,62,075,31,13,60,294,33,14,58,148,27,05,44,242,30*75\n"
    ],
    [
      1692124422251,
      "$GPGSV,3,2,11,07,33,074,33,49,28,200,24,15,26,301,31,20,25,212,26*7F\n"
    ],
    [
      1692124422366,
      "$GPGSV,3,3,11,08,17,045,23,18,09,318,19,27,04,014,*41\n"
    ],
    [
      1692124422491,
      "$BDGSV,3,1,11,24,66,073,37,25,52,226,29,10,38,082,33,07,34,069,34*69\n"
    ],
    [
      1692124422578,
      "$BDGSV,3,2,11,14,28,164,31,05,20,136,30,26,17,059,30,09,09,088,25*6D\n"
    ],
    [
      1692124422676,
      "$BDGSV,3,3,11,02,06,113,29,23,05,233,22,29,04,007,*5A\n"
    ],
    [
      1692124427210,
      "$GPGSA,A,3,30,20,05,07,15,13,08,14,18,,,,1.09,0.76,0.78*05\r\n"
    ],
    [
      1692124427645,
      "$BDGSA,A,3,07,14,10,24,25,,,,,,,,1.09,0.76,0.78*17\r\n"
    ],
    [
      1692124427750,
      "$GPGSV,3,1,11,30,62,075,31,13,60,294,32,14,58,148,26,05,44,242,30*75\r\n"
    ],
    [
      1692124427887,
      "$GPGSV,3,2,11,07,33,074,34,15,26,301,31,20,25,212,26,40,22,139,*74\r\n"
    ],
    [
      1692124428250,
      "$GPGSV,3,3,11,08,17,045,21,18,09,318,20,27,04,014,*49\r164,31,05,20,136,30,26,17,059,30,09,09,088,25*6D\n"
    ],
    [
      1692124428463,
      "$BDGSV,3,3,11,02,06,113,29,23,05,233,20,29,04,007,*58\n"
    ],
    [
      1692124428597,
      "$GNGLL,5204.8917,N,02101.4008,E,183339.000,A,A*4E\n"
    ],
    [
      1692124428825,
      "$GPGRS,183339.000,1,-0.79,-12.5,-0.27,-0.46,0.40,4.91,4.15,-1.47,1.44,1.08,,-1.12,*40\n"
    ],
    [
      1692124428982,
      "$GPGST,183339.000,4.3,4.7,2.9,167.2,4.6,3.0,15*42\n"
    ],
    [
      1692124429064,
      "$GNRMC,183330.000,A,5204.9169,N,02101.3763,E,21.67,154.02,150823,,,A*40\n"
    ],
    [
      1692124429186,
      "$GNVTG,154.02,T,,M,21.67,N,40.15,K,A*23\n"
    ],
    [
      1692124429341,
      "$GNGGA,183330.000,5204.9169,N,02101.3763,E,1,13,0.80,92.7,M,39.3,M,,*40\n"
    ],
    [
      1692124429464,
      "$GPGSA,A,3,30,20,05,07,15,13,14,18,,,,,1.14,0.80,0.80*0F\n"
    ],
    [
      1692124429562,
      "$BDGSA,A,3,07,14,10,24,25,,,,,,,,1.14,0.80,0.80*15\n"
    ],
    [
      1692124429753,
      "$GNZDA,183345.000,15,08,2023,,*4F\n"
    ],
    [
      1692124429881,
      "$GNRMC,183345.000,A,5204.8914,N,02101.4010,E,0.00,150.31,150823,,,A*73\n"
    ],
    [
      1692124429979,
      "$GNVTG,150.31,T,,M,0.00,N,0.00,K,A*25\n"
    ],
    [
      1692124430217,
      "$GNGGA,183345.000,5204.8914,N,02101.4010,E,1,14,0.76,94.9,M,39.3,M,,*43\n"
    ],
    [
      1692124430366,
      "$GPGSA,A,3,30,20,05,07,15,13,08,14,18,,,,1.09,0.76,0.78*05\n"
    ],
    [
      1692124430486,
      "$BDGSA,A,3,07,14,10,24,25,,,,,,,,1.09,0.76,0.78*.78,3.56,-2.87,8.02,-2.21,4.36,2.87,,*6A\n"
    ],
    [
      1692124430592,
      "$GPGST,183353.000,4.2,7.9,4.4,169.6,7.8,4.5,22*48\n"
    ],
    [
      1692124430700,
      "$GNVTG,154.02,T,,M,21.67,N,40.15,K,A*23\n"
    ],
    [
      1692124430802,
      "$GNGGA,183330.000,5204.9169,N,02101.3763,E,1,13,0.80,92.7,M,39.3,M,,*40\n"
    ],
    [
      1692124430957,
      "$GPGSA,A,3,30,20,05,07,15,13,14,18,,,,,1.14,0.80,0.80*0F\n"
    ],
    [
      1692124431132,
      "$BDGSA,A,3,07,14,10,24,25,,,,,,,,1.14,0.80,0.80*15\n"
    ],
    [
      1692124431198,
      "$GNZDA,183345.000,15,08,2023,,*4F\n"
    ],
    [
      1692124431267,
      "$GNRMC,183345.000,A,5204.8914,N,02101.4010,E,0.00,150.31,150823,,,A*73\n"
    ],
    [
      1692124431407,
      "$GNVTG,150.31,T,,M,0.00,N,0.00,K,A*25\n"
    ],
    [
      1692124431463,
      "$GNGGA,183345.000,5204.8914,N,02101.4010,E,1,14,0.76,94.9,M,39.3,M,,*43\n"
    ],
    [
      1692124431528,
      "$GPGSA,A,3,30,20,05,07,15,13,08,14,18,,,,1.09,0.76,0.78*05\n"
    ],
    [
      1692124431640,
      "$GPGST,183353.000,4.2,7.9,4.4,169.6,7.8,4.5,22*48\n"
    ],
    [
      1692124431732,
      "$GNVTG,154.02,T,,M,21.67,N,40.15,K,A*23\n"
    ],
    [
      1692124431814,
      "$GNGGA,183330.000,5204.9169,N,02101.3763,E,1,13,0.80,92.7,M,39.3,M,,*40\n"
    ],
    [
      1692124431893,
      "$GPGSA,A,3,30,20,05,07,15,13,14,18,,,,,1.14,0.80,0.80*0F\n"
    ],
    [
      1692124431989,
      "$BDGSA,A,3,07,14,10,24,25,,,,,,,,1.14,0.80,0.80*15\n"
    ],
    [
      1692124432110,
      "$GNZDA,183354.000,15,08,2023,,*4F\n"
    ],
    [
      1692124432261,
      "$GNRMC,183354.000,A,5204.8896,N,02101.4035,E,5.55,139.79,150823,,,A*79\n"
    ],
    [
      1692124432340,
      "$GNVTG,139.79,T,,M,5.55,N,10.29,K,A*19\n"
    ],
    [
      1692124432529,
      "$GNGGA,183354.000,5204.8896,N,02101.4035,E,1,13,0.77,95.4,M,39.3,M,,*45\n"
    ],
    [
      1692124432633,
      "$GPGSA,A,3,30,20,05,07,15,13,08,14,18,,,,1.10,0.77,0.79*0D\n"
    ],
    [
      1692124432718,
      "$BDGSA,A,3,07,14,10,24,,,,,,,,,1.10,0.77,0.79*18\n"
    ],
    [
      1692124432798,
      "$GPGSV,3,1,11,30,62,075,29,13,60,294,30,14,58,148,24,05,44,242,29*74\n"
    ],
    [
      1692124432900,
      "$GPGSV,3,2,11,07,33,074,23,15,26,301,31,20,25,212,25,33,21,223,*7E\n"
    ],
    [
      1692124432968,
      "$GPGSV,3,3,11,08,17,045,22,18,09,318,18,27,04,014,*41\n"
    ],
    [
      1692124433048,
      "$BDGSV,3,1,11,24,65,072,35,25,52,227,,10,38,082,32,07,34,069,30*66\n"
    ],
    [
      1692124433133,
      "$BDGSV,3,2,11,14,28,164,27,05,20,136,30,26,17,059,31,09,09,088,27*69\n"
    ],
    [
      1692124433218,
      "$BDGSV,3,3,11,02,06,113,30,23,05,233,21,29,04,006,*50\n"
    ],
    [
      1692124433287,
      "$GNGLL,5204.8896,N,02101.4035,E,183354.000,A,A*43\n"
    ],
    [
      1692124433461,
      "$GPGRS,183354.000,1,-1.34,-8.47,-0.13,0.94,-4.14,5.27,-2.60,7.90,-5.55,4.11,5.69,,*46\n"
    ],
    [
      1692124433587,
      "$GPGST,183354.000,4.2,6.5,3.7,166.5,6.4,3.9,17*4A\n"
    ],
    [
      1692124433766,
      "$GNZDA,183345.000,15,08,2023,,*4F\n"
    ],
    [
      1692124433851,
      "$GNRMC,183345.000,A,5204.8914,N,02101.4010,E,0.00,150.31,150823,,,A*73\n"
    ],
    [
      1692124434007,
      "$GNVTG,150.31,T,,M,0.00,N,0.00,K,A*25\n"
    ],
    [
      1692124434094,
      "$GNGGA,183345.000,5204.8914,N,02101.4010,E,1,14,0.76,94.9,M,39.3,M,,*43\n"
    ],
    [
      1692124434214,
      "$GPGSA,A,3,30,20,05,07,15,13,08,14,18,,,,1.09,0.76,0.78*05\n"
    ],
    [
      1692124434411,
      "$GPGST,183353.000,4.2,7.9,4.4,169.6,7.8,4.5,22*48\n"
    ],
    [
      1692124434501,
      "$GNVTG,154.02,T,,M,21.67,N,40.15,K,A*23\n"
    ],
    [
      1692124434705,
      "$GNGGA,183330.000,5204.9169,N,02101.3763,E,1,13,0.80,92.7,M,39.3,M,,*40\n"
    ],
    [
      1692124434764,
      "$GPGSA,A,3,30,20,05,07,15,13,14,18,,,,,1.14,0.80,0.80*0F\n"
    ],
    [
      1692124434885,
      "$BDGSA,A,3,07,14,10,24,25,,,,,,,,1.14,0.80,0.80*15\n"
    ],
    [
      1692124434989,
      "$GNZDA,183354.000,15,08,2023,,*4F\n"
    ],
    [
      1692124435056,
      "$GNRMC,183354.000,A,5204.8896,N,02101.4035,E,5.55,139.79,150823,,,A*79\n"
    ],
    [
      1692124435112,
      "$GNVTG,139.79,T,,M,5.55,N,10.29,K,A*19\n"
    ],
    [
      1692124435245,
      "$GNGGA,183354.000,5204.8896,N,02101.4035,E,1,13,0.77,95.4,M,39.3,M,,*45\n"
    ],
    [
      1692124435296,
      "$GNZDA,183355.000,15,08,2023,,*4E\n"
    ],
    [
      1692124435343,
      "$GNRMC,183355.000,A,5204.8873,N,02101.4066,E,8.37,141.51,150823,,,A*79\n"
    ],
    [
      1692124435416,
      "$GNVTG,141.51,T,,M,8.37,N,15.51,K,A*1F\n"
    ],
    [
      1692124435466,
      "$GNGGA,183355.000,5204.8873,N,02101.4066,E,1,14,0.76,95.7,M,39.3,M,,*4C\n"
    ],
    [
      1692124435570,
      "$GPGSA,A,3,30,20,05,07,15,13,08,14,18,,,,1.09,0.76,0.78*05\n"
    ],
    [
      1692124435644,
      "$BDGSA,A,3,07,14,10,24,25,,,,,,,,1.09,0.76,0.78*17\n"
    ],
    [
      1692124435766,
      "$GPGSV,3,1,11,30,62,075,28,13,60,294,31,14,58,148,24,05,44,242,29*74\n"
    ],
    [
      1692124435832,
      "$GPGSV,3,2,11,07,33,074,24,15,26,301,31,20,25,212,25,33,21,223,*79\n"
    ],
    [
      1692124435890,
      "$GPGSV,3,3,11,08,17,045,22,18,09,318,17,27,04,014,*4E\n"
    ],
    [
      1692124436020,
      "$BDGSV,3,1,11,24,65,072,34,25,52,227,27,10,38,082,32,07,34,069,30*62\n"
    ],
    [
      1692124436152,
      "$BDGSV,3,2,11,14,28,164,26,05,20,136,29,26,17,059,31,09,09,088,27*60\n"
    ],
    [
      1692124436232,
      "$BDGSV,3,3,11,02,06,113,29,23,05,233,20,29,04,006,*59\n"
    ],
    [
      1692124436428,
      "$GNGLL,5204.8873,N,02101.4066,E,183355.000,A,A*4F\n"
    ],
    [
      1692124436517,
      "$GPGRS,183355.000,1,-2.17,-7.35,-2.02,1.03,-3.84,4.13,-1.75,8.96,-8.97,2.88,5.48,,*42\n"
    ],
    [
      1692124436629,
      "$GPGST,183355.000,4.2,6.5,3.5,165.3,6.3,3.7,17*45\n"
    ],
    [
      1692124436726,
      "$GPGSA,A,3,30,20,05,07,15,13,08,14,18,,,,1.10,0.77,0.79*0D\n"
    ],
    [
      1692124436840,
      "$BDGSA,A,3,07,14,10,24,,,,,,,,,1.10,0.77,0.79*18\n"
    ],
    [
      1692124436962,
      "$GPGSV,3,1,11,30,62,075,29,13,60,294,30,14,58,148,24,05,44,242,29*74\n"
    ],
    [
      1692124437072,
      "$GPGSV,3,2,11,07,33,074,23,15,26,301,31,20,25,212,25,33,21,223,*7E\n"
    ],
    [
      1692124437147,
      "$GPGSV,3,3,11,08,17,045,22,18,09,318,18,27,04,014,*41\n"
    ],
    [
      1692124437372,
      "$BDGSV,3,1,11,24,65,072,35,25,52,227,,10,38,082,32,07,34,069,30*66\n"
    ],
    [
      1692124437493,
      "$BDGSV,3,2,11,14,28,164,27,05,20,136,30,26,17,059,31,09,09,088,27*69\n"
    ],
    [
      1692124437545,
      "$BDGSV,3,3,11,02,06,113,30,23,05,233,21,29,04,006,*50\n"
    ],
    [
      1692124437641,
      "$GNGLL,5204.8896,N,02101.4035,E,183354.000,A,A*43\n"
    ],
    [
      1692124437833,
      "$GPGRS,183354.000,1,-1.34,-8.47,-0.13,0.94,-4.14,5.27,-2.60,7.90,-5.55,4.11,5.69,,*46\n"
    ],
    [
      1692124438168,
      "$GPGST,183354.000,4.2,6.5,3.7,166.5,6.4,3.9,17*4A\n"
    ],
    [
      1692124438311,
      "$GNZDA,183345.000,15,08,2023,,*4F\n"
    ],
    [
      1692124438403,
      "$GNRMC,183345.000,A,5204.8914,N,02101.4010,E,0.00,150.31,150823,,,A*73\n"
    ],
    [
      1692124438506,
      "$GNVTG,150.31,T,,M,0.00,N,0.00,K,A*25\n"
    ],
    [
      1692124438644,
      "$GNGGA,183345.000,5204.8914,N,02101.4010,E,1,14,0.76,94.9,M,39.3,M,,*43\n"
    ],
    [
      1692124438784,
      "$GNZDA,183356.000,15,08,2023,,*4D\n"
    ],
    [
      1692124438880,
      "$GNRMC,183356.000,A,5204.8847,N,02101.4105,E,11.58,138.59,150823,,,A*4E\n"
    ],
    [
      1692124438940,
      "$GNVTG,138.59,T,,M,11.58,N,21.46,K,A*29\n"
    ],
    [
      1692124439012,
      "$GNGGA,183356.000,5204.8847,N,02101.4105,E,1,14,0.77,96.0,M,39.3,M,,*49\n"
    ],
    [
      1692124439079,
      "$GPGSA,A,3,30,20,05,07,15,13,08,14,18,,,,1.47,0.77,1.25*07\n"
    ],
    [
      1692124439194,
      "$BDGSA,A,3,07,14,10,24,25,,,,,,,,1.47,0.77,1.25*15\n"
    ],
    [
      1692124439496,
      "$GPGSV,3,1,11,30,62,075,28,13,60,294,31,14,58,148,24,05,44,242,29*74\n"
    ],
    [
      1692124439656,
      "$GPGSV,3,2,11,07,33,074,25,15,26,301,30,20,25,212,26,33,21,223,*7A\n"
    ],
    [
      1692124440188,
      "$GPGSV,3,3,11,08,17,045,22,18,09,318,17,27,04,014,*4E\n"
    ],
    [
      1692124440728,
      "$BDGSV,3,1,11,24,65,072,34,25,52,227,28,10,38,082,32,07,34,069,30*6D\n"
    ],
    [
      1692124440900,
      "$BDGSV,3,2,11,14,28,164,26,05,20,136,29,26,17,059,31,09,09,088,27*60\n"
    ],
    [
      1692124440982,
      "$BDGSV,3,3,11,02,06,113,29,23,05,233,19,29,04,006,*53\n"
    ],
    [
      1692124441081,
      "$GNGLL,5204.8847,N,02101.4105,E,183356.000,A,A*4F\n"
    ],
    [
      1692124441878,
      "$GPGRS,183356.000,1,-2.78,-7.56,-1.22,1.22,-5.49,0.70,-2.65,9.28,-9.88,2.60,6.07,,*4E\n"
    ],
    [
      1692124441952,
      "$GPGST,183356.000,4.2,6.4,3.2,161.7,6.2,3.7,16*40\n"
    ],
    [
      1692124442039,
      "$GPGSA,A,3,30,20,05,07,15,13,08,14,18,,,,1.09,0.76,0.78*05\n"
    ],
    [
      1692124442120,
      "$GPGST,183353.000,4.2,7.9,4.4,169.6,7.8,4.5,22*48\n"
    ],
    [
      1692124442243,
      "$GNVTG,154.02,T,,M,21.67,N,40.15,K,A*23\n"
    ],
    [
      1692124442618,
      "$GNGGA,183330.08,2023,,*4F\n"
    ],
    [
      1692124442742,
      "$GNRMC,183345.000,A,5204.8914,N,02101.4010,E,0.00,150.31,150823,,,A*73\n"
    ],
    [
      1692124442852,
      "$GNVTG,150.31,T,,M,0.00,N,0.00,K,A*25\n"
    ],
    [
      1692124442986,
      "$GNGGA,183345.000,5204.8914,N,02101.4010,E,1,14,0.76,94.9,M,39.3,M,,*43\n"
    ],
    [
      1692124443030,
      "$GNZDA,183356.000,15,08,2023,,*4D\n"
    ],
    [
      1692124443100,
      "$GNRMC,183356.000,A,5204.8847,N,02101.4105,E,11.58,138.59,150823,,,A*4E\n"
    ],
    [
      1692124443149,
      "$GNVTG,138.59,T,,M,11.58,N,21.46,K,A*29\n"
    ],
    [
      1692124443216,
      "$GNGGA,183356.000,5204.8847,N,02101.4105,E,1,14,0.77,96.0,M,39.3,M,,*49\n"
    ],
    [
      1692124443339,
      "$GNZDA,183359.000,15,08,2023,,*42\n"
    ],
    [
      1692124443629,
      "$GNRMC,183359.000,A,5204.8725,N,02101.4293,E,21.56,135.95,150823,,,A*46\n"
    ],
    [
      1692124443738,
      "$GNVTG,135.95,T,,M,21.56,N,39.94,K,A*2F\n"
    ],
    [
      1692124443910,
      "$GNGGA,183359.000,5204.8725,N,02101.4293,E,1,14,0.77,96.4,M,39.3,M,,*45\n"
    ],
    [
      1692124443987,
      "$GPGSA,A,3,30,20,05,07,15,13,08,14,18,,,,1.47,0.77,1.25*07\n"
    ],
    [
      1692124444097,
      "$BDGSA,A,3,07,14,10,24,25,,,,,,,,1.47,0.77,1.25*15\n"
    ],
    [
      1692124444239,
      "$GPGSV,3,1,11,30,62,075,31,13,60,294,31,14,58,148,23,05,44,242,30*73\n"
    ],
    [
      1692124444396,
      "$GPGSV,3,2,11,07,33,074,27,15,26,301,25,20,25,212,28,33,21,223,*72\n"
    ],
    [
      1692124444609,
      "$GPGSV,3,3,11,08,17,045,19,18,09,318,18,27,04,014,*49\n"
    ],
    [
      1692124444662,
      "$BDGSV,3,1,11,24,65,072,34,25,52,227,30,10,38,082,30,07,34,069,29*6E\n"
    ],
    [
      1692124444780,
      "$BDGSV,3,2,11,14,28,164,28,05,20,136,25,26,17,059,30,09,09,088,29*6D\n"
    ],
    [
      1692124444955,
      "$BDGSV,3,3,11,02,06,113,28,23,05,233,18,29,04,006,*53\n"
    ],
    [
      1692124445073,
      "$GNGLL,5204.8725,N,02101.4293,E,183359.000,A,A*47\n"
    ],
    [
      1692124445182,
      "$GPGRS,183359.000,1,-1.75,-4.72,-2.13,2.57,-6.51,-0.17,-3.20,10.8,-4.08,1.24,7.13,,*64\n"
    ],
    [
      1692124445310,
      "$GPGST,183359.000,4.2,6.0,2.9,153.2,5.5,3.8,15*4D\n"
    ],
    [
      1692124445393,
      "$GPGSA,A,3,30,20,05,07,15,13,08,14,18,,,,1.47,0.77,1.25*07\n"
    ],
    [
      1692124445475,
      "$BDGSA,A,3,07,14,10,24,25,,,,,,,,1.47,0.77,1.25*15\n"
    ],
    [
      1692124445849,
      "$GPGSV,3,1,11,30,62,075,28,13,60,294,31,14,58,148,24,05,44,242,29*74\n"
    ],
    [
      1692124446298,
      "$GPGSV,3,2,11,07,33,074,25,15,26,301,30,20,25,212,26,33,21,223,*7A\n"
    ],
    [
      1692124446880,
      "$GPGSV,3,3,11,08,17,045,22,18,09,318,17,27,04,014,*4E\n"
    ],
    [
      1692124447717,
      "$BDGSV,3,1,11,24,65,072,34,25,52,227,28,10,38,082,32,07,34,069,30*6D\n"
    ],
    [
      1692124448441,
      "$BDGSV,3,2,11,14,28,164,26,05,20,136,29,26,17,059,31,09,09,088,27*60\n"
    ],
    [
      1692124449012,
      "$BDGSV,3,3,11,02,06,113,29,23,05,233,19,29,04,006,*53\n"
    ],
    [
      1692124449590,
      "$GNZDA,183409.000,15,08,2023,,*40\n"
    ],
    [
      1692124449768,
      "$GNRMC,183409.000,A,5204.8271,N,02101.5391,E,32.19,112.60,150823,,,A*44\n"
    ],
    [
      1692124449955,
      "$GNVTG,112.60,T,,M,32.19,N,59.64,K,A*20\n"
    ],
    [
      1692124450069,
      "$GNGGA,183409.000,5204.8271,N,02101.5391,E,1,15,0.73,98.2,M,39.3,M,,*4C\n"
    ],
    [
      1692124450257,
      "$GPGSA,A,3,30,20,05,07,15,13,08,14,18,,,,1.06,0.73,0.76*01\n"
    ],
    [
      1692124450359,
      "$BDGSA,A,3,07,14,10,26,24,25,,,,,,,1.06,0.73,0.76*17\n"
    ],
    [
      1692124450474,
      "$GPGSV,3,1,11,30,62,075,31,13,61,294,33,14,59,147,21,05,44,241,27*79\n"
    ],
    [
      1692124450547,
      "$GPGSV,3,2,11,07,32,075,29,15,26,301,19,20,25,212,18,08,17,044,26*7A\n"
    ],
    [
      1692124450638,
      "$GPGSV,3,3,11,44,17,128,,18,09,318,19,27,04,014,*42\n"
    ],
    [
      1692124450737,
      "$BDGSV,3,1,11,24,65,072,38,25,52,227,35,10,38,082,29,07,34,069,32*65\n"
    ],
    [
      1692124450809,
      "$BDGSV,3,2,11,14,28,164,17,05,20,136,,26,17,059,33,09,09,088,33*6E\n"
    ],
    [
      1692124450891,
      "$BDGSV,3,3,11,02,06,113,26,23,05,233,,29,04,006,*54\n"
    ],
    [
      1692124451056,
      "$GNGLL,5204.8271,N,02101.5391,E,183409.000,A,A*43\n"
    ],
    [
      1692124451823,
      "$GPGRS,183409.000,1,-3.66,-10.8,2.10,4.78,6.82,1.18,-6.43,9.79,-9.63,4.44,13.4,,*45\n"
    ],
    [
      1692124452157,
      "$GPGST,183409.000,4.1,6.8,2.4,153.7,6.2,3.7,15*47\n"
    ],
    [
      1692124452402,
      "$BDGSV,3,1,11,24,65,072,34,25,52,227,28,10,38,082,32,07,34,069,30*6D\n"
    ],
    [
      1692124452537,
      "$GNZDA,183359.000,15,08,2023,,*42\n"
    ],
    [
      1692124452689,
      "$GNRMC,183359.000,A,5204.8725,N,02101.4293,E,21.56,135.95,150823,,,A*46\n"
    ],
    [
      1692124452747,
      "$GNVTG,135.95,T,,M,21.56,N,39.94,K,A*2F\n"
    ],
    [
      1692124452902,
      "$GNGGA,183359.000,5204.8725,N,02101.4293,E,1,14,0.77,96.4,M,39.3,M,,*45\n"
    ],
    [
      1692124453021,
      "$GPGSA,A,3,30,20,05,07,15,13,08,14,18,,,,1.47,0.77,1.25*07\n"
    ],
    [
      1692124453173,
      "$BDGSA,A,3,07,14,10,24,25,,,,,,,,1.47,0.77,1.25*15\n"
    ],
    [
      1692124453293,
      "$GNZDA,183408.000,15,08,2023,,*41\n"
    ],
    [
      1692124453371,
      "$GNRMC,183408.000,A,5204.8309,N,02101.5253,E,32.37,114.38,150823,,,A*43\n"
    ],
    [
      1692124453570,
      "$GNVTG,114.38,T,,M,32.37,N,59.99,K,A*25\n"
    ],
    [
      1692124453780,
      "$GNGGA,183408.000,5204.8309,N,02101.5253,E,1,14,0.77,98.3,M,39.3,M,,*48\n"
    ],
    [
      1692124453900,
      "$GPGSA,A,3,30,20,05,07,15,13,08,14,18,,,,1.47,0.77,1.24*06\n"
    ],
    [
      1692124454106,
      "$GNZDA,183412.000,15,08,2023,,*4A\n"
    ],
    [
      1692124454416,
      "$GNRMC,183412.000,A,5204.8161,N,02101.5851,E,36.34,107.64,150823,,,A*40\n"
    ],
    [
      1692124454484,
      "$GNVTG,107.64,T,,M,36.34,N,67.35,K,A*22\n"
    ],
    [
      1692124454556,
      "$GNGGA,183412.000,5204.8161,N,02101.5851,E,1,15,0.75,97.6,M,39.3,M,,*4E\n"
    ],
    [
      1692124454655,
      "$GPGSA,A,3,30,20,05,07,15,13,08,14,18,,,,1.40,0.75,1.18*0C\n"
    ],
    [
      1692124454750,
      "$BDGSA,A,3,07,14,10,26,24,25,,,,,,,1.40,0.75,1.18*1A\n"
    ],
    [
      1692124454866,
      "$GPGSV,3,1,11,30,62,075,31,13,61,294,34,14,59,147,17,05,44,241,24*78\n"
    ],
    [
      1692124455032,
      "$GPGSV,3,2,11,07,32,075,24,15,27,301,20,20,25,212,17,08,17,044,26*73\n"
    ],
    [
      1692124455147,
      "$GPGSV,3,3,11,18,09,318,17,27,04,014,,34,,,*76\n"
    ],
    [
      1692124455237,
      "$BDGSV,3,1,11,24,65,072,38,25,52,227,36,10,38,082,29,07,34,069,30*64\n"
    ],
    [
      1692124455363,
      "$BDGSV,3,2,11,14,28,164,16,05,20,136,,26,17,059,34,09,09,088,29*63\n"
    ],
    [
      1692124455672,
      "$BDGSV,3,3,11,02,06,113,,23,05,233,,29,04,006,*50\n"
    ],
    [
      1692124455910,
      "$GNGLL,5204.8161,N,02101.5851,E,183412.000,A,A*4C\n"
    ],
    [
      1692124456018,
      "$GPGRS,183412.000,1,-2.30,-9.71,3.72,1.00,-2.62,-0.73,-4.93,19.2,-12.4,4.76,13.7,,*49\n"
    ],
    [
      1692124456249,
      "$GPGST,183412.000,4.1,7.2,3.1,158.3,6.7,3.9,17*44\n"
    ],
    [
      1692124456410,
      "$BDGSA,A,3,07,14,10,24,25,,,,,,,,1.47,0.77,1.24*14\n"
    ],
    [
      1692124456497,
      "$GPGSV,3,1,11,30,62,075,31,13,61,294,32,14,58,148,21,05,44,241,29*78\n"
    ],
    [
      1692124456646,
      "$GPGSV,3,2,11,07,32,075,30,15,26,301,20,20,25,212,18,08,17,044,25*7B\n"
    ],
    [
      1692124456761,
      "$GPGSV,3,3,11,44,17,128,,18,09,318,19,27,04,014,*42\n"
    ],
    [
      1692124456923,
      "$BDGSV,3,1,11,24,65,072,38,25,52,227,36,10,38,082,29,07,34,069,32*66\n"
    ],
    [
      1692124457039,
      "$BDGSV,3,2,11,14,28,164,18,05,20,136,,26,17,059,33,09,09,088,34*66\n"
    ],
    [
      1692124457358,
      "$BDGSV,3,3,11,02,06,113,27,23,05,233,,29,04,006,*55\n"
    ],
    [
      1692124457479,
      "$GNGLL,5204.8309,N,02101.5253,E,183408.000,A,A*43\n"
    ],
    [
      1692124457623,
      "$GPGRS,183408.000,1,-6.13,-13.6,1.52,3.72,5.57,0.19,-6.54,8.03,-15.2,5.01,8.29,,*48\n"
    ],
    [
      1692124457890,
      "$GPGST,183408.000,4.1,6.6,2.4,153.1,6.0,3.7,15*4C\n"
    ],
    [
      1692124458095,
      "$GPGSV,3,1,11,30,62,075,31,13,60,294,31,14,58,148,23,05,44,242,30*73\n"
    ],
    [
      1692124458185,
      "$GPGSV,3,2,11,07,33,074,27,15,26,301,25,20,25,212,28,33,21,223,*72\n"
    ],
    [
      1692124458359,
      "$GPGSV,3,3,11,08,17,045,19,18,09,318,18,27,04,014,*49\n"
    ],
    [
      1692124458510,
      "$BDGSV,3,1,11,24,65,072,34,25,52,227,30,10,38,082,30,07,34,069,29*6E\n"
    ],
    [
      1692124458630,
      "$BDGSV,3,2,11,14,28,164,28,05,20,136,25,26,17,059,30,09,09,088,29*6D\n"
    ],
    [
      1692124458798,
      "$GNZDA,183413.000,15,08,2023,,*4B\n"
    ],
    [
      1692124458954,
      "$GNRMC,183413.000,A,5204.8131,N,02101.6015,E,36.81,104.48,150823,,,A*4C\n"
    ],
    [
      1692124459059,
      "$GNVTG,104.48,T,,M,36.81,N,68.20,K,A*2A\n"
    ],
    [
      1692124459232,
      "$GNGGA,183413.000,5204.8131,N,02101.6015,E,1,15,0.75,98.2,M,39.3,M,,*4A\n"
    ],
    [
      1692124459505,
      "$GPGSA,A,3,30,20,05,07,15,13,08,14,18,,,,1.40,0.75,1.18*0C\n"
    ],
    [
      1692124459630,
      "$BDGSA,A,3,07,14,10,26,24,25,,,,,,,1.40,0.75,1.18*1A\n"
    ],
    [
      1692124459746,
      "$GPGSV,3,1,11,30,62,075,31,13,61,294,34,14,59,147,16,05,44,241,24*79\n"
    ],
    [
      1692124460043,
      "$GPGSV,3,2,11,07,32,075,22,15,27,301,29,20,25,212,17,08,17,044,24*7E\n"
    ],
    [
      1692124460263,
      "$GPGSV,3,3,11,18,09,317,16,27,04,014,,34,,,*78\n"
    ],
    [
      1692124460491,
      "$BDGSV,3,1,11,24,65,072,38,25,52,227,37,10,38,082,30,07,\n"
    ],
    [
      1692124460666,
      "$GNRMC,183413.000,A,5204.8131,N,02101.6015,E,36.81,104.48,150823,,,A*4C\n"
    ],
    [
      1692124460726,
      "$GNVTG,104.48,T,,M,36.81,N,68.20,K,A*2A\n"
    ],
    [
      1692124460796,
      "$GNGGA,183413.000,5204.8131,N,02101.6015,E,1,15,0.75,98.2,M,39.3,M,,*4A\n"
    ],
    [
      1692124460857,
      "$GNZDA,183420.000,15,08,2023,,*4B\n"
    ],
    [
      1692124460928,
      "$GNRMC,183420.000,A,5204.8011,N,02101.7084,E,31.01,101.28,150823,,,A*4A\n"
    ],
    [
      1692124460998,
      "$GNVTG,101.28,T,,M,31.01,N,57.46,K,A*2A\n"
    ],
    [
      1692124461042,
      "$GNGGA,183420.000,5204.8011,N,02101.7084,E,1,11,1.07,99.1,M,39.3,M,,*42\n"
    ],
    [
      1692124461115,
      "$GPGSA,A,3,30,20,05,07,15,13,08,,,,,,1.89,1.07,1.55*08\n"
    ],
    [
      1692124461187,
      "$BDGSA,A,3,07,10,24,25,,,,,,,,,1.89,1.07,1.55*13\n"
    ],
    [
      1692124461260,
      "$GNZDA,183422.000,15,08,2023,,*49\n"
    ],
    [
      1692124461305,
      "$GNRMC,183422.000,A,5204.7976,N,02101.7355,E,30.36,101.20,150823,,,A*4D\n"
    ],
    [
      1692124461377,
      "$GNVTG,101.20,T,,M,30.36,N,56.26,K,A*20\n"
    ],
    [
      1692124461433,
      "$GNGGA,183422.000,5204.7976,N,02101.7355,E,1,12,1.07,99.1,M,39.3,M,,*4B\n"
    ],
    [
      1692124461498,
      "$GPGSA,A,3,30,20,05,07,15,13,08,,,,,,1.78,1.07,1.42*00\n"
    ],
    [
      1692124461573,
      "$BDGSA,A,3,26,07,10,24,25,,,,,,,,1.78,1.07,1.42*1F\n"
    ],
    [
      1692124461709,
      "$GPGSV,3,1,11,30,62,075,31,13,61,294,33,14,59,147,16,05,44,241,28*72\n"
    ],
    [
      1692124461996,
      "$GPGSV,3,2,11,07,32,075,17,15,27,301,29,20,25,211,21,08,17,044,19*70\n"
    ],
    [
      1692124462182,
      "$GPGSV,3,3,11,18,09,317,,27,03,013,,35,,,*7E\n"
    ],
    [
      1692124462368,
      "$BDGSV,3,1,11,24,65,072,37,25,52,227,40,10,38,082,32,07,34,069,24*65\n"
    ],
    [
      1692124462579,
      "$BDGSV,3,2,11,14,28,164,10,05,20,136,,26,17,059,31,09,09,088,28*61\n"
    ],
    [
      1692124462641,
      "$BDGSV,3,3,11,02,06,113,,23,05,233,,29,04,006,16*57\n"
    ],
    [
      1692124462715,
      "$GNGLL,5204.7976,N,02101.7355,E,183422.000,A,A*43\n"
    ],
    [
      1692124462853,
      "$GPGRS,183422.000,1,1.40,4.62,1.22,6.22,0.16,-0.35,-2.76,13.7,4.48,,-2.66,-3.13,*4C\n"
    ],
    [
      1692124463091,
      "$GPGST,183422.000,4.3,7.1,3.1,155.4,6.6,4.1,17*42\n"
    ],
    [
      1692124463258,
      "$GPGSV,3,1,11,30,62,075,30,13,61,294,33,14,59,147,,05,44,241,27*7B\n"
    ],
    [
      1692124463380,
      "$GPGSV,3,2,11,07,32,075,18,15,27,301,29,20,25,211,22,08,17,044,19*7C\n"
    ],
    [
      1692124463499,
      "$GPGSV,3,3,11,18,09,317,,27,04,014,13,35,,,*7C\n"
    ],
    [
      1692124463646,
      "$BDGSV,3,1,11,24,65,072,37,25,52,227,40,10,38,082,32,07,34,069,24*65\n"
    ],
    [
      1692124463759,
      "$BDGSV,3,2,11,14,28,164,10,05,20,136,,26,17,059,,09,09,088,27*6C\n"
    ],
    [
      1692124463824,
      "$BDGSV,3,3,11,02,06,113,,23,05,233,,29,04,006,16*57\n"
    ],
    [
      1692124463963,
      "$GNGLL,5204.8011,N,02101.7084,E,183420.000,A,A*49\n"
    ],
    [
      1692124464111,
      "$GPGRS,183420.000,1,0.00,7.85,1.90,-3.94,1.28,2.92,-3.17,3.25,,-1.77,-2.43,*79\n"
    ],
    [
      1692124464436,
      "$GPGST,183420.000,4.3,6.9,3.3,158.0,6.5,4.0,17*40,3,1,11,24,65,072,37,25,52,227,40,10,38,082,32,07,34,069,23*62\n"
    ],
    [
      1692124464559,
      "$BDGSV,3,2,11,14,28,164,,05,20,136,,26,17,059,28,09,09,088,29*69\n"
    ],
    [
      1692124464754,
      "$BDGSV,3,3,11,02,06,113,,23,05,233,,29,04,006,16*57\n"
    ],
    [
      1692124464920,
      "$GNGLL,5204.7945,N,02101.7629,E,183424.000,A,A*4B\n"
    ],
    [
      1692124465011,
      "$GPGRS,183424.000,1,0.83,-2.16,0.72,22.1,0.85,0.20,-1.80,4.69,,-3.19,-3.54,*78\n"
    ],
    [
      1692124465131,
      "$GPGST,183424.000,4.3,6.8,3.1,152.6,6.2,4.2,16*4F\n"
    ],
    [
      1692124465246,
      "$GPGSV,3,1,11,30,62,075,30,13,61,294,33,14,59,147,,05,44,241,27*7B\n"
    ],
    [
      1692124465377,
      "$GPGSV,3,2,11,07,32,075,18,15,27,301,29,20,25,211,21,08,17,044,19*7F\n"
    ],
    [
      1692124465568,
      "$GPGSV,3,3,11,18,09,317,,27,04,014,,35,,,*7E\n"
    ],
    [
      1692124465654,
      "$BDGSV,3,1,11,24,65,072,37,25,52,227,40,10,38,082,32,07,34,069,25*64\n"
    ],
    [
      1692124465739,
      "$BDGSV,3,2,11,14,28,164,11,05,20,136,,26,17,059,23,09,09,088,28*63\n"
    ],
    [
      1692124465854,
      "$BDGSV,3,3,11,02,06,113,,23,05,233,,29,04,006,16*57\n"
    ],
    [
      1692124466020,
      "$GNGLL,5204.7993,N,02101.7220,E,183421.000,A,A*48\n"
    ],
    [
      1692124466179,
      "$GPGRS,183421.000,1,1.29,5.85,0.64,2.81,1.57,1.23,-2.59,13.4,4.59,,-2.06,-2.38,*69\n"
    ],
    [
      1692124466294,
      "$GPGST,183421.000,4.3,7.0,3.2,157.2,6.6,4.0,17*46\n"
    ],
    [
      1692124466406,
      "$GPGSV,3,1,11,30,62,075,31,13,60,294,31,14,58,148,23,05,44,242,30*73\n"
    ],
    [
      1692124466502,
      "$GPGSV,3,2,11,07,33,074,27,15,26,301,25,20,25,212,28,33,21,223,*72\n"
    ],
    [
      1692124466618,
      "$GPGSV,3,3,11,08,17,045,19,18,09,318,18,27,04,014,*49\n"
    ],
    [
      1692124466817,
      "$BDGSV,3,1,11,24,65,072,34,25,52,227,30,10,38,082,30,07,34,069,29*6E\n"
    ],
    [
      1692124466867,
      "$BDGSV,3,2,11,14,28,164,28,05,20,136,25,26,17,059,30,09,09,088,29*6D\n"
    ],
    [
      1692124466968,
      "$GNZDA,183425.000,15,08,2023,,*4E\n"
    ],
    [
      1692124467035,
      "$GNRMC,183425.000,A,5204.7931,N,02101.7768,E,30.18,99.08,150823,,,A*75\n"
    ],
    [
      1692124467091,
      "$GNVTG,99.08,T,,M,30.18,N,55.92,K,A*1A\n"
    ],
    [
      1692124467318,
      "$GNGGA,183425.000,5204.7931,N,02101.7768,E,1,12,1.00,98.7,M,39.3,M,,*45\n"
    ],
    [
      1692124467433,
      "$GPGSA,A,3,30,20,05,15,13,08,14,,,,,,1.28,1.00,0.81*0E\n"
    ],
    [
      1692124467554,
      "$BDGSA,A,3,26,07,10,24,25,,,,,,,,1.28,1.00,0.81*13\n"
    ],
    [
      1692124467768,
      "$GPGSV,3,1,11,13,61,294,32,30,61,075,31,14,59,147,16,05,44,241,29*71\n"
    ],
    [
      1692124467848,
      "$GPGSV,3,2,11,07,32,075,,15,27,301,29,20,25,211,24,08,17,044,19*73\n"
    ],
    [
      1692124467958,
      "$GPGSV,3,3,11,18,09,317,,27,03,013,,36,,,*7D\n"
    ],
    [
      1692124468033,
      "$BDGSV,3,1,11,24,65,072,37,25,52,227,40,10,38,082,32,07,34,069,23*62\n"
    ],
    [
      1692124468118,
      "$BDGSV,3,2,11,14,28,164,,05,20,136,,26,17,059,29,09,09,088,29*68\n"
    ],
    [
      1692124468296,
      "$BDGSV,3,3,11,02,06,113,,23,05,233,,29,04,006,16*57\n"
    ],
    [
      1692124468488,
      "$GNGLL,5204.7931,N,02101.7768,E,183425.000,A,A*4D\n"
    ],
    [
      1692124468600,
      "$GPGRS,183425.000,1,0.50,-2.53,1.86,0.15,1.75,-1.53,15.1,11.8,3.78,,-4.29,-4.42,*47\n"
    ],
    [
      1692124468714,
      "$GPGST,183425.000,4.3,6.8,3.2,153.5,6.2,4.2,16*4F\n"
    ],
    [
      1692124468785,
      "$BDGSV,3,3,11,02,06,113,,23,05,233,,29,04,006,16*57\n"
    ],
    [
      1692124468895,
      "$GPGST,183422.000,4.3,7.1,3.1,155.4,6.6,4.1,17*42\n"
    ],
    [
      1692124469144,
      "$GPGSV,3,1,11,30,62,075,30,13,61,294,33,14,59,147,,05,44,241,27*7B\n"
    ],
    [
      1692124469251,
      "$GPGSV,3,2,11,07,32,075,18,15,27,301,29,20,25,211,22,08,17,044,19*7C\n"
    ],
    [
      1692124469592,
      "$BDGSV,3,2,11,14,28,164,,05,20,136,,26,17,059,21,09,09,088,26*6F\n"
    ],
    [
      1692124469696,
      "$BDGSV,3,3,11,02,06,113,,23,05,233,,29,04,006,18*59\n"
    ],
    [
      1692124469812,
      "$GNGLL,5204.7844,N,02101.8643,E,183431.000,A,A*4C\n"
    ],
    [
      1692124469865,
      "$GPGRS,183431.000,1,-0.60,-4.73,2.85,-1.44,2.03,-0.69,22.1,10.1,3.08,,-4.91,-4.70,*43\n"
    ],
    [
      1692124469971,
      "$GPGST,183431.000,4.5,7.7,3.6,152.4,7.0,4.8,17*4E\n"
    ],
    [
      1692124470059,
      "$BDGSV,3,2,11,14,28,164,,05,20,136,,26,17,059,29,09,09,088,29*68\n"
    ],
    [
      1692124470150,
      "$BDGSV,3,3,11,02,06,113,,23,05,233,,29,04,006,16*57\n"
    ],
    [
      1692124470281,
      "$GNGLL,5204.7931,N,02101.7768,E,183425.000,A,A*4D\n"
    ],
    [
      1692124470397,
      "$GPGRS,183425.000,1,0.50,-2.53,1.86,0.15,1.75,-1.53,15.1,11.8,3.78,,-4.29,-4.42,*47\n"
    ],
    [
      1692124470558,
      "$GPGST,183425.000,4.3,6.8,3.2,153.5,6.2,4.2,16*4F\n"
    ],
    [
      1692124470705,
      "$BDGSV,3,3,11,02,06,113,,23,05,233,,29,04,006,16*57\n"
    ],
    [
      1692124470939,
      "$GNGLL,5204.7976,N,02101.7355,E,183422.000,A,A*43\n"
    ],
    [
      1692124471115,
      "$GPGRS,183422.000,1,1.40,4.62,1.22,6.22,0.16,-0.35,-2.76,13.7,4.48,,-2.66,-3.13,*4C\n"
    ],
    [
      1692124471311,
      "$GPGST,183422.000,4.3,7.1,3.1,155.4,6.6,4.1,17*42\n"
    ],
    [
      1692124471429,
      "$GPGSV,3,1,11,30,62,075,30,13,61,294,33,14,59,147,,05,44,241,27*7B\n"
    ],
    [
      1692124471684,
      "$GPGSV,3,2,11,07,32,075,18,15,27,301,29,20,25,211,22,08,17,044,19*7C\n"
    ],
    [
      1692124471872,
      "$BDGSV,3,2,11,14,28,164,,05,20,136,,26,17,059,21,09,09,088,26*6F\n"
    ],
    [
      1692124472079,
      "$BDGSV,3,3,11,02,06,113,,23,05,233,,29,04,006,18*59\n"
    ],
    [
      1692124472129,
      "$GNGLL,5204.7844,N,02101.8643,E,183431.000,A,A*4C\n"
    ],
    [
      1692124472290,
      "$GNZDA,183432.000,15,08,2023,,*48\n"
    ],
    [
      1692124472464,
      "$GNRMC,183432.000,A,5204.7829,N,02101.8798,E,34.86,99.29,150823,,,A*7B\n"
    ],
    [
      1692124472689,
      "$GNVTG,99.29,T,,M,34.86,N,64.60,K,A*15\n"
    ],
    [
      1692124472774,
      "$GNGGA,183432.000,5204.7829,N,02101.8798,E,1,12,1.00,97.7,M,39.3,M,,*44\n"
    ],
    [
      1692124472839,
      "$GPGSA,A,3,30,20,05,15,13,08,14,,,,,,1.28,1.00,0.81*0E\n"
    ],
    [
      1692124473004,
      "$BDGSA,A,3,26,07,10,24,25,,,,,,,,1.28,1.00,0.81*13\n"
    ],
    [
      1692124473130,
      "$GPGSV,3,1,11,13,61,294,32,30,61,075,30,14,59,147,16,05,44,241,29*70\n"
    ],
    [
      1692124473332,
      "$GPGSV,3,2,11,07,32,075,14,15,27,301,28,20,25,211,24,08,17,044,18*76\n"
    ],
    [
      1692124473617,
      "$GPGSV,3,3,11,18,09,317,,27,03,013,,36,,,*7D\n"
    ],
    [
      1692124473761,
      "$BDGSV,3,1,11,24,65,072,37,25,52,227,39,10,38,082,32,07,34,069,23*6C\n"
    ],
    [
      1692124473829,
      "$BDGSV,3,2,11,14,28,164,,05,20,136,,26,17,059,28,09,09,088,25*65\n"
    ],
    [
      1692124473981,
      "$BDGSV,3,3,11,02,06,113,,23,05,233,,29,04,006,17*56\n"
    ],
    [
      1692124474078,
      "$GNGLL,5204.7829,N,02101.8798,E,183432.000,A,A*43\n"
    ],
    [
      1692124474267,
      "$GPGRS,183431.000,1,-0.60,-4.73,2.85,-1.44,2.03,-0.69,22.1,10.1,3.08,,-4.91,-4.70,*43\n"
    ],
    [
      1692124474308,
      "$GPGST,183431.000,4.5,7.7,3.6,152.4,7.0,4.8,17*4E\n"
    ],
    [
      1692124474381,
      "$BDGSV,3,2,11,14,28,164,,05,20,136,,26,17,059,29,09,09,088,29*68\n"
    ],
    [
      1692124474456,
      "$BDGSV,3,3,11,02,06,113,,23,05,233,,29,04,006,16*57\n"
    ],
    [
      1692124474523,
      "$GNGLL,5204.7931,N,02101.7768,E,183425.000,A,A*4D\n"
    ],
    [
      1692124474611,
      "$GPGRS,183425.000,1,0.50,-2.53,1.86,0.15,1.75,-1.53,15.1,11.8,3.78,,-4.29,-4.42,*47\n"
    ],
    [
      1692124474673,
      "$GPGST,183425.000,4.3,6.8,3.2,153.5,6.2,4.2,16*4F\n"
    ],
    [
      1692124474713,
      "$BDGSV,3,3,11,02,06,113,,23,05,233,,29,04,006,16*57\n"
    ],
    [
      1692124474755,
      "$GNGLL,5204.7976,N,02101.7355,E,183422.000,A,A*43\n"
    ],
    [
      1692124474818,
      "$GNZDA,183435.000,15,08,2023,,*4F\n"
    ],
    [
      1692124474896,
      "$GNRMC,183435.000,A,5204.7780,N,02101.9238,E,31.55,102.40,150823,,,A*49\n"
    ],
    [
      1692124474960,
      "$GNVTG,102.40,T,,M,31.55,N,58.46,K,A*29\n"
    ],
    [
      1692124475087,
      "$GNGGA,183435.000,5204.7780,N,02101.9238,E,1,13,0.99,96.4,M,39.3,M,,*43\n"
    ],
    [
      1692124475162,
      "$GPGSA,A,3,30,20,05,07,15,13,08,14,,,,,1.70,0.99,1.38*06\n"
    ],
    [
      1692124475223,
      "$BDGSA,A,3,26,07,10,24,25,,,,,,,,1.70,0.99,1.38*1C\n"
    ],
    [
      1692124475335,
      "$GPGSV,3,1,11,13,61,294,32,30,61,075,31,14,59,147,19,05,44,241,29*7E\n"
    ],
    [
      1692124475405,
      "$GPGSV,3,2,11,07,32,075,14,15,27,301,29,20,25,211,21,08,17,044,18*72\n"
    ],
    [
      1692124475476,
      "$GPGSV,3,3,11,18,09,317,,27,03,013,17,36,,,26*7F\n"
    ],
    [
      1692124475522,
      "$BDGSV,3,1,11,24,65,072,37,25,52,227,39,10,38,082,31,07,34,069,23*6F\n"
    ],
    [
      1692124475601,
      "$BDGSV,3,2,11,14,28,164,,05,20,136,27,26,17,059,29,09,09,088,28*6C\n"
    ],
    [
      1692124475664,
      "$BDGSV,3,3,11,02,06,113,,23,05,233,,29,04,006,25*57\n"
    ],
    [
      1692124475724,
      "$GNGLL,5204.7780,N,02101.9238,E,183435.000,A,A*46\n"
    ],
    [
      1692124475782,
      "$GPGRS,183435.000,1,-3.95,-2.66,3.42,-59.6,-1.04,-0.34,0.09,-0.94,7.29,1.88,,-5.42,*63\n"
    ],
    [
      1692124475855,
      "$GPGST,183435.000,4.5,7.5,3.7,151.0,6.8,4.8,16*46\n"
    ],
    [
      1692124476064,
      "$GPGRS,183422.000,1,1.40,4.62,1.22,6.22,0.16,-0.35,-2.76,13.7,4.48,,-2.66,-3.13,*4C\n"
    ],
    [
      1692124476136,
      "$GPGST,183422.000,4.3,7.1,3.1,155.4,6.6,4.1,17*42\n"
    ],
    [
      1692124476303,
      "$GNZDA,183433.000,15,08,2023,,*49\n"
    ],
    [
      1692124476394,
      "$GNRMC,183433.000,A,5204.7814,N,02101.8950,E,33.76,99.98,150823,,,A*7C\n"
    ],
    [
      1692124476466,
      "$GNVTG,99.98,T,,M,33.76,N,62.55,K,A*17\n"
    ],
    [
      1692124476682,
      "$GNGGA,183433.000,5204.7814,N,02101.8950,E,1,12,1.02,97.4,M,39.3,M,,*40\n"
    ],
    [
      1692124476925,
      "$GPGSA,A,3,30,20,05,15,13,08,14,,,,,,1.72,1.02,1.39*01\n"
    ],
    [
      1692124477036,
      "$BDGSA,A,3,26,07,10,24,25,,,,,,,,1.72,1.02,1.39*1C\n"
    ],
    [
      1692124477198,
      "$GPGSV,3,1,11,13,61,294,32,30,61,075,30,14,59,147,17,05,44,241,29*71\n"
    ],
    [
      1692124477358,
      "$GPGSV,3,2,11,07,32,075,15,15,27,301,28,20,25,211,24,08,17,044,18*77\n"
    ],
    [
      1692124477441,
      "$GPGSV,3,3,11,18,09,317,,27,03,013,,36,,,*7D\n"
    ],
    [
      1692124477536,
      "$BDGSV,3,1,11,24,65,072,37,25,52,227,39,10,38,082,32,07,34,069,23*6C\n"
    ],
    [
      1692124477655,
      "$BDGSV,3,2,11,14,28,164,,05,20,136,,26,17,059,29,09,09,088,26*67\n"
    ],
    [
      1692124477764,
      "$BDGSV,3,3,11,02,06,113,,23,05,233,,29,04,006,17*56\n"
    ],
    [
      1692124477878,
      "$GNGLL,5204.7814,N,02101.8950,E,183433.000,A,A*46\n"
    ],
    [
      1692124477992,
      "$GNZDA,183436.000,15,08,2023,,*4C\n"
    ],
    [
      1692124478195,
      "$GNRMC,183436.000,A,5204.7760,N,02101.9377,E,31.27,104.14,150823,,,A*4C\n"
    ],
    [
      1692124478365,
      "$GNVTG,104F\n"
    ],
    [
      1692124478490,
      "$BDGSV,3,2,11,14,28,164,,05,20,136,,26,17,059,21,09,09,088,26*6F\n"
    ],
    [
      1692124478605,
      "$BDGSV,3,3,11,02,06,113,,23,05,233,,29,04,006,18*59\n"
    ],
    [
      1692124478724,
      "$GNGLL,5204.7844,N,02101.8643,E,183431.000,A,A*4C\n"
    ],
    [
      1692124478824,
      "$GNZDA,183432.000,15,08,2023,,*48\n"
    ],
    [
      1692124478918,
      "$GPGST,183433.000,4.5,7.7,3.7,151.3,7.0,4.9,16*49\n"
    ],
    [
      1692124478990,
      "$GPGSV,3,1,11,30,62,075,30,13,61,294,33,14,59,147,,05,44,241,27*7B\n"
    ],
    [
      1692124479057,
      "$GPGSV,3,2,11,07,32,075,18,15,27,301,29,20,25,211,22,08,17,044,19*7C\n"
    ],
    [
      1692124479184,
      "$GNZDA,183443.000,15,08,2023,,*4E\n"
    ],
    [
      1692124479353,
      "$GNRMC,183443.000,A,5204.7505,N,02102.0256,E,30.72,125.52,150823,,,A*47\n"
    ],
    [
      1692124479469,
      "$GNVTG,125.52,T,,M,30.72,N,56.92,K,A*2C\n"
    ],
    [
      1692124479575,
      "$GNGGA,183443.000,5204.7505,N,02102.0256,E,1,13,0.85,90.5,M,39.3,M,,*45\n"
    ],
    [
      1692124479697,
      "$GPGSA,A,3,30,20,05,07,15,13,08,14,,,,,1.18,0.85,0.81*06\n"
    ],
    [
      1692124479887,
      "$BDGSA,A,3,07,10,14,24,25,,,,,,,,1.18,0.85,0.81*1D\n"
    ],
    [
      1692124480033,
